[{"business_id": "5UmKMjUEUNdYWqANhGckJw", "full_address": "4734 Lebanon Church Rd\nDravosburg, PA 15034", "hours": {"Friday": {"close": "21:00", "open": "11:00"}, "Tuesday": {"close": "21:00", "open": "11:00"}, "Thursday": {"close": "21:00", "open": "11:00"}, "Wednesday": {"close": "21:00", "open": "11:00"}, "Monday": {"close": "21:00", "open": "11:00"}}, "open": true, "categories": ["Fast Food", "Restaurants"], "city": "Dravosburg", "review_count": 4, "name": "Mr Hoagie", "neighborhoods": [], "longitude": -79.9007057, "state": "PA", "stars": 4.5, "latitude": 40.3543266, "attributes": {"Take-out": true, "Drive-Thru": false, "Good For": {"dessert": false, "latenight": false, "lunch": false, "dinner": false, "brunch": false, "breakfast": false}, "Caters": false, "Noise Level": "average", "Takes Reservations": false, "Delivery": false, "Ambience": {"romantic": false, "intimate": false, "classy": false, "hipster": false, "divey": false, "touristy": false, "trendy": false, "upscale": false, "casual": false}, "Parking": {"garage": false, "street": false, "validated": false, "lot": false, "valet": false}, "Has TV": false, "Outdoor Seating": false, "Attire": "casual", "Alcohol": "none", "Waiter Service": false, "Accepts Credit Cards": true, "Good for Kids": true, "Good For Groups": true, "Price Range": 1}, "type": "business"}
{"business_id": "UsFtqoBl7naz8AVUBZMjQQ", "full_address": "202 McClure St\nDravosburg, PA 15034", "hours": {}, "open": true, "categories": ["Nightlife"], "city": "Dravosburg", "review_count": 4, "name": "Clancy's Pub", "neighborhoods": [], "longitude": -79.8868138, "state": "PA", "stars": 3.5, "latitude": 40.3505527, "attributes": {"Happy Hour": true, "Accepts Credit Cards": true, "Good For Groups": true, "Outdoor Seating": false, "Price Range": 1}, "type": "business"}
{"business_id": "3eu6MEFlq2Dg7bQh8QbdOg", "full_address": "1 Ravine St\nDravosburg, PA 15034", "hours": {}, "open": true, "categories": ["Auto Repair", "Automotive"], "city": "Dravosburg", "review_count": 3, "name": "Joe Cislo's Auto", "neighborhoods": [], "longitude": -79.889059, "state": "PA", "stars": 5.0, "latitude": 40.3509559, "attributes": {}, "type": "business"}
{"business_id": "cE27W9VPgO88Qxe4ol6y_g", "full_address": "1530 Hamilton Rd\nBethel Park, PA 15234", "hours": {}, "open": false, "categories": ["Active Life", "Mini Golf", "Golf"], "city": "Bethel Park", "review_count": 5, "name": "Cool Springs Golf Center", "neighborhoods": [], "longitude": -80.0146597, "state": "PA", "stars": 2.5, "latitude": 40.3541155, "attributes": {"Good for Kids": true}, "type": "business"}
{"business_id": "HZdLhv6COCleJMo7nPl-RA", "full_address": "301 South Hills Village\nPittsburgh, PA 15241", "hours": {"Monday": {"close": "21:00", "open": "10:00"}, "Tuesday": {"close": "21:00", "open": "10:00"}, "Friday": {"close": "17:00", "open": "10:00"}, "Wednesday": {"close": "21:00", "open": "10:00"}, "Thursday": {"close": "17:00", "open": "10:00"}, "Sunday": {"close": "18:00", "open": "11:00"}, "Saturday": {"close": "21:00", "open": "10:00"}}, "open": true, "categories": ["Shopping", "Home Services", "Internet Service Providers", "Mobile Phones", "Professional Services", "Electronics"], "city": "Pittsburgh", "review_count": 5, "name": "Verizon", "neighborhoods": [], "longitude": -80.05998, "state": "PA", "stars": 2.5, "latitude": 40.35762, "attributes": {"Parking": {"garage": false, "street": false, "validated": false, "lot": false, "valet": false}, "Accepts Credit Cards": false, "Price Range": 2}, "type": "business"}
{"business_id": "mVHrayjG3uZ_RLHkLj-AMg", "full_address": "414 Hawkins Ave\nrankin, PA 15104", "hours": {"Tuesday": {"close": "19:00", "open": "10:00"}, "Friday": {"close": "20:00", "open": "10:00"}, "Wednesday": {"close": "19:00", "open": "10:00"}, "Thursday": {"close": "19:00", "open": "10:00"}, "Saturday": {"close": "16:00", "open": "10:00"}}, "open": true, "categories": ["Bars", "American (New)", "Nightlife", "Lounges", "Restaurants"], "city": "rankin", "review_count": 20, "name": "Emil's Lounge", "neighborhoods": [], "longitude": -79.8802474, "state": "PA", "stars": 5.0, "latitude": 40.4134643, "attributes": {"Alcohol": "full_bar", "Noise Level": "average", "Has TV": true, "Attire": "casual", "Ambience": {"romantic": false, "intimate": false, "classy": false, "hipster": false, "divey": false, "touristy": false, "trendy": false, "upscale": false, "casual": false}, "Good for Kids": true, "Price Range": 1, "Good For Dancing": false, "Delivery": false, "Coat Check": false, "Smoking": "no", "Accepts Credit Cards": true, "Take-out": true, "Happy Hour": false, "Outdoor Seating": false, "Takes Reservations": false, "Waiter Service": true, "Wi-Fi": "no", "Caters": true, "Good For": {"dessert": false, "latenight": false, "lunch": true, "dinner": false, "breakfast": false, "brunch": false}, "Parking": {"garage": false, "street": false, "validated": false, "lot": false, "valet": false}, "Music": {"dj": false}, "Good For Groups": true}, "type": "business"}
{"business_id": "VHYT1qgQw5JvXAlUDhTArA", "full_address": "2101 Greentree Rd Ste B201\nPittsburgh, PA 15220", "hours": {}, "open": true, "categories": ["Active Life", "Trainers", "Fitness & Instruction"], "city": "Pittsburgh", "review_count": 3, "name": "Extreme Fitness 2", "neighborhoods": [], "longitude": -80.0708968, "state": "PA", "stars": 2.5, "latitude": 40.3903858, "attributes": {"Good for Kids": false}, "type": "business"}
{"business_id": "KayYbHCt-RkbGcPdGOThNg", "full_address": "141 Hawthorne St\nGreentree\nCarnegie, PA 15106", "hours": {"Monday": {"close": "02:00", "open": "11:00"}, "Tuesday": {"close": "02:00", "open": "11:00"}, "Friday": {"close": "02:00", "open": "11:00"}, "Wednesday": {"close": "02:00", "open": "11:00"}, "Thursday": {"close": "02:00", "open": "11:00"}, "Saturday": {"close": "02:00", "open": "12:00"}}, "open": true, "categories": ["Bars", "American (Traditional)", "Nightlife", "Restaurants"], "city": "Carnegie", "review_count": 21, "name": "Alexion's Bar & Grill", "neighborhoods": ["Greentree"], "longitude": -80.067534, "state": "PA", "stars": 4.0, "latitude": 40.415517, "attributes": {"Alcohol": "full_bar", "Noise Level": "loud", "Has TV": true, "Attire": "casual", "Ambience": {"romantic": false, "intimate": false, "touristy": false, "hipster": false, "divey": false, "classy": false, "trendy": false, "upscale": false, "casual": true}, "Good for Kids": false, "Price Range": 1, "Good For Dancing": true, "Delivery": false, "Coat Check": false, "Smoking": "outdoor", "Accepts Credit Cards": true, "Take-out": true, "Happy Hour": true, "Outdoor Seating": true, "Takes Reservations": false, "Waiter Service": true, "Wi-Fi": "free", "Caters": false, "Good For": {"dessert": false, "latenight": false, "lunch": false, "dinner": true, "brunch": false, "breakfast": false}, "Parking": {"garage": false, "street": false, "validated": false, "lot": true, "valet": false}, "Music": {"dj": false}, "Good For Groups": true}, "type": "business"}
{"business_id": "b12U9TFESStdy7CsTtcOeg", "full_address": "718A Hope Hollow Rd\nCarnegie, PA 15106", "hours": {"Monday": {"close": "19:00", "open": "07:30"}, "Tuesday": {"close": "19:00", "open": "07:30"}, "Friday": {"close": "19:00", "open": "07:30"}, "Wednesday": {"close": "19:00", "open": "07:30"}, "Thursday": {"close": "19:00", "open": "07:30"}, "Saturday": {"close": "16:00", "open": "07:30"}}, "open": true, "categories": ["Auto Repair", "Automotive", "Tires"], "city": "Carnegie", "review_count": 7, "name": "Flynn's Tire And Auto Service", "neighborhoods": [], "longitude": -80.0844539, "state": "PA", "stars": 2.5, "latitude": 40.394588, "attributes": {}, "type": "business"}
{"business_id": "Sktj1eHQFuVa-M4bgnEh8g", "full_address": "920 Forsythe Rd\nCarnegie\nCarnegie, PA 15106", "hours": {}, "open": false, "categories": ["Active Life", "Mini Golf"], "city": "Carnegie", "review_count": 4, "name": "Forsythe Miniature Golf & Snacks", "neighborhoods": ["Carnegie"], "longitude": -80.0762665, "state": "PA", "stars": 4.0, "latitude": 40.4054039, "attributes": {"Good for Kids": true}, "type": "business"}
{"business_id": "3ZVKmuK2l7uXPE6lXY4Dbg", "full_address": "8 Logan St\nCarnegie\nCarnegie, PA 15106", "hours": {}, "open": true, "categories": ["Home Services", "Contractors"], "city": "Carnegie", "review_count": 3, "name": "Quaker State Construction", "neighborhoods": ["Carnegie"], "longitude": -80.0903575, "state": "PA", "stars": 2.5, "latitude": 40.406323, "attributes": {}, "type": "business"}
{"business_id": "QoDa50dc7g62xciFygXB9w", "full_address": "2080 Greentree Rd\nPittsburgh, PA 15220", "hours": {}, "open": true, "categories": ["Veterinarians", "Pets"], "city": "Pittsburgh", "review_count": 5, "name": "Greentree Animal Clinic", "neighborhoods": [], "longitude": -80.0691338, "state": "PA", "stars": 4.0, "latitude": 40.3922071, "attributes": {}, "type": "business"}
{"business_id": "1_lU0-eSWJCRvNGk78Zh9Q", "full_address": "300 Beechwood Ave\nCarnegie\nCarnegie, PA 15106", "hours": {}, "open": true, "categories": ["Libraries", "Public Services & Government"], "city": "Carnegie", "review_count": 3, "name": "Carnegie Free Library", "neighborhoods": ["Carnegie"], "longitude": -80.0858661, "state": "PA", "stars": 4.5, "latitude": 40.4068423, "attributes": {}, "type": "business"}
{"business_id": "_qopVQ6_Mz6W7-Pmbi56GQ", "full_address": "1011 Washington Ave\nCarnegie, PA 15106", "hours": {}, "open": true, "categories": ["Automotive", "Auto Parts & Supplies"], "city": "Carnegie", "review_count": 3, "name": "Advance Auto Parts", "neighborhoods": [], "longitude": -80.0824517, "state": "PA", "stars": 3.5, "latitude": 40.3983526, "attributes": {}, "type": "business"}
{"business_id": "wJr6kSA5dchdgOdwH6dZ2w", "full_address": "2100 Washington Pike\nCarnegie, PA 15106", "hours": {"Monday": {"close": "02:00", "open": "08:00"}, "Tuesday": {"close": "02:00", "open": "08:00"}, "Friday": {"close": "02:00", "open": "08:00"}, "Wednesday": {"close": "02:00", "open": "08:00"}, "Thursday": {"close": "02:00", "open": "08:00"}, "Sunday": {"close": "02:00", "open": "08:00"}, "Saturday": {"close": "02:00", "open": "08:00"}}, "open": true, "categories": ["Burgers", "Breakfast & Brunch", "American (Traditional)", "Restaurants"], "city": "Carnegie", "review_count": 8, "name": "Kings Family Restaurant", "neighborhoods": [], "longitude": -80.0932152, "state": "PA", "stars": 3.5, "latitude": 40.3875124, "attributes": {"Take-out": true, "Drive-Thru": false, "Good For": {"dessert": false, "latenight": false, "lunch": false, "dinner": false, "brunch": false, "breakfast": false}, "Takes Reservations": false, "Delivery": false, "Parking": {"garage": false, "street": false, "validated": false, "lot": false, "valet": false}, "Wheelchair Accessible": true, "Outdoor Seating": false, "Attire": "casual", "Alcohol": "none", "Waiter Service": true, "Accepts Credit Cards": true, "Good for Kids": true, "Good For Groups": true, "Price Range": 1}, "type": "business"}
{"business_id": "yXuao0pFz1AxB21vJjDf5w", "full_address": "2100 Washington Pike\nCarnegie, PA 15106", "hours": {"Monday": {"close": "00:00", "open": "00:00"}, "Tuesday": {"close": "00:00", "open": "00:00"}, "Friday": {"close": "00:00", "open": "00:00"}, "Wednesday": {"close": "00:00", "open": "00:00"}, "Thursday": {"close": "00:00", "open": "00:00"}, "Sunday": {"close": "00:00", "open": "00:00"}, "Saturday": {"close": "00:00", "open": "00:00"}}, "open": true, "categories": ["Food", "Grocery"], "city": "Carnegie", "review_count": 4, "name": "Shop N' Save", "neighborhoods": [], "longitude": -80.0932152, "state": "PA", "stars": 4.0, "latitude": 40.3875124, "attributes": {"Parking": {"garage": false, "street": false, "validated": false, "lot": true, "valet": false}, "Accepts Credit Cards": true, "Wheelchair Accessible": true, "Price Range": 1}, "type": "business"}
{"business_id": "F04xyOUA2xnUoCiWpx9iJA", "full_address": "Bower Hill Rd & Vanadium Rd\nCarnegie, PA 15106", "hours": {}, "open": true, "categories": ["Local Services", "Dry Cleaning & Laundry", "Sewing & Alterations"], "city": "Carnegie", "review_count": 3, "name": "Rossi Tailoring & Cleaners", "neighborhoods": [], "longitude": -80.0843536574327, "state": "PA", "stars": 3.0, "latitude": 40.3688246816964, "attributes": {"Accepts Credit Cards": true}, "type": "business"}
{"business_id": "Cdcus0NADzyY3XiJM2O5Sg", "full_address": "1927 E Railroad St\nCarnegie, PA 15106", "hours": {}, "open": false, "categories": ["Automotive", "Gas & Service Stations"], "city": "Carnegie", "review_count": 4, "name": "Heidelberg B P", "neighborhoods": [], "longitude": -80.089241, "state": "PA", "stars": 3.0, "latitude": 40.388284, "attributes": {}, "type": "business"}]